{
  "places": {
    "total": 100,
    "place": [{
      "place_id": "FRthiQZQU7uKHvmP",
      "woeid": "1118370",
      "latitude": "35.670",
      "longitude": "139.740",
      "place_url": "\/Japan\/Tokyo+Prefecture\/%E6%9D%B1%E4%BA%AC",
      "place_type": "locality",
      "place_type_id": "7",
      "timezone": "Asia\/Tokyo",
      "_content": "Tokyo, Tokyo Prefecture, Japan",
      "woe_name": "Tokyo",
      "photo_count": "1592"
    }, {
      "place_id": "EsIQUYZXU79_kEA",
      "woeid": "615702",
      "latitude": "48.856",
      "longitude": "2.341",
      "place_url": "\/France\/Ile-de-France\/Paris",
      "place_type": "locality",
      "place_type_id": "7",
      "timezone": "Europe\/Paris",
      "_content": "Paris, Ile-de-France, France",
      "woe_name": "Paris",
      "photo_count": "432"
    }, {
      "place_id": "Gd.Z3AtYVb5XTmw",
      "woeid": "974667",
      "latitude": "51.010",
      "longitude": "4.515",
      "place_url": "\/Belgium\/Antwerp\/Muizen",
      "place_type": "locality",
      "place_type_id": "7",
      "timezone": "Europe\/Brussels",
      "_content": "Muysen, Antwerp, Belgium",
      "woe_name": "Muysen",
      "photo_count": "158"
    }, {
      "place_id": "CtA5vEFTUb9wUP9D",
      "woeid": "2355942",
      "latitude": "38.878",
      "longitude": "-77.100",
      "place_url": "\/United+States\/Virginia\/Arlington",
      "place_type": "locality",
      "place_type_id": "7",
      "timezone": "America\/New_York",
      "_content": "Arlington, Virginia, United States",
      "woe_name": "Arlington",
      "photo_count": "140"
    }, {
      "place_id": "6SULVp5VU7vq",
      "woeid": "4118",
      "latitude": "43.648",
      "longitude": "-79.385",
      "place_url": "\/Canada\/Ontario\/Toronto",
      "place_type": "locality",
      "place_type_id": "7",
      "timezone": "America\/Toronto",
      "_content": "Toronto, Ontario, Canada",
      "woe_name": "Toronto",
      "photo_count": "129"
    }, {
      "place_id": "ryCAGu5WULMwyEo",
      "woeid": "729028",
      "latitude": "51.434",
      "longitude": "5.484",
      "place_url": "\/Nederland\/North+Brabant\/Eindhoven",
      "place_type": "locality",
      "place_type_id": "7",
      "timezone": "Europe\/Amsterdam",
      "_content": "Eindhoven, North Brabant, Netherlands",
      "woe_name": "Eindhoven",
      "photo_count": "117"
    }, {
      "place_id": "Dqd8n29TWrgqng",
      "woeid": "28218",
      "latitude": "53.442",
      "longitude": "-2.233",
      "place_url": "\/United+Kingdom\/England\/Manchester",
      "place_type": "locality",
      "place_type_id": "7",
      "timezone": "Europe\/London",
      "_content": "Manchester, England, United Kingdom",
      "woe_name": "Manchester",
      "photo_count": "93"
    }, {
      "place_id": "oztzbzpXU7MsfgA",
      "woeid": "619068",
      "latitude": "49.250",
      "longitude": "4.037",
      "place_url": "\/France\/Champagne-Ardenne\/Reims",
      "place_type": "locality",
      "place_type_id": "7",
      "timezone": "Europe\/Paris",
      "_content": "Reims, Champagne-Ardenne, France",
      "woe_name": "Reims",
      "photo_count": "61"
    }, {
      "place_id": "Zzx.96RYVLK1NWY",
      "woeid": "968146",
      "latitude": "50.589",
      "longitude": "3.879",
      "place_url": "\/Belgium\/Hainault\/Cambron-Casteau",
      "place_type": "locality",
      "place_type_id": "7",
      "timezone": "Europe\/Brussels",
      "_content": "Cambron-Casteau, Hainault, Belgium",
      "woe_name": "Cambron-Casteau",
      "photo_count": "60"
    }, {
      "place_id": "qY_6H7pXULxDWBc",
      "woeid": "626726",
      "latitude": "47.397",
      "longitude": "-0.316",
      "place_url": "\/France\/Pays+de+la+Loire\/Saint-R%C3%A9my-la-Varenne",
      "place_type": "locality",
      "place_type_id": "7",
      "timezone": "Europe\/Paris",
      "_content": "St.-Remy-La-Varenne, Pays de la Loire, France",
      "woe_name": "St.-Remy-La-Varenne",
      "photo_count": "52"
    }, {
      "place_id": "1o4r4VJUUrieaqE",
      "woeid": "502075",
      "latitude": "50.060",
      "longitude": "19.932",
      "place_url": "\/Poland\/Lesser+Poland\/Krak%C3%B3w",
      "place_type": "locality",
      "place_type_id": "7",
      "timezone": "Europe\/Warsaw",
      "_content": "Krakow, Lesser Poland, Poland",
      "woe_name": "Krakow",
      "photo_count": "49"
    }, {
      "place_id": "QoAk5kxXU73gMbU",
      "woeid": "617000",
      "latitude": "48.840",
      "longitude": "-3.228",
      "place_url": "\/France\/Brittany\/Plougrescant",
      "place_type": "locality",
      "place_type_id": "7",
      "timezone": "Europe\/Paris",
      "_content": "Plougrescant, Brittany, France",
      "woe_name": "Plougrescant",
      "photo_count": "43"
    }, {
      "place_id": "ulg7THFQUL98UDcWQg",
      "woeid": "12518049",
      "latitude": "51.345",
      "longitude": "-0.469",
      "place_url": "\/United+Kingdom\/England\/Brooklands+Airport",
      "place_type": "locality",
      "place_type_id": 7,
      "timezone": "Europe\/London",
      "_content": "Brooklands Airport, United Kingdom",
      "woe_name": "Brooklands Airport",
      "photo_count": "28"
    }, {
      "place_id": "8Xzz5ldXUL2QTnc",
      "woeid": "627791",
      "latitude": "48.570",
      "longitude": "7.757",
      "place_url": "\/France\/Alsace\/Strasbourg",
      "place_type": "locality",
      "place_type_id": "7",
      "timezone": "Europe\/Paris",
      "_content": "Strasbourg, Alsace, France",
      "woe_name": "Strasbourg",
      "photo_count": "25"
    }, {
      "place_id": "oDPKY.BXULrJboc",
      "woeid": "620108",
      "latitude": "49.441",
      "longitude": "1.095",
      "place_url": "\/France\/Upper+Normandy\/Rouen",
      "place_type": "locality",
      "place_type_id": "7",
      "timezone": "Europe\/Paris",
      "_content": "Rouen, Upper Normandy, France",
      "woe_name": "Rouen",
      "photo_count": "21"
    }, {
      "place_id": "5XnUSUdUVLwLp7sOZA",
      "woeid": "56616833",
      "latitude": "52.020",
      "longitude": "-0.417",
      "place_url": "\/United+Kingdom\/England",
      "place_type": "locality",
      "place_type_id": 7,
      "timezone": "Europe\/London",
      "_content": "Central Bedfordshire District, United Kingdom",
      "woe_name": "Central Bedfordshire District",
      "photo_count": "21"
    }, {
      "place_id": "61.VX.tTVrjKqJeY",
      "woeid": "2424766",
      "latitude": "29.775",
      "longitude": "-95.381",
      "place_url": "\/United+States\/Texas\/Houston\/in-Harris",
      "place_type": "locality",
      "place_type_id": "7",
      "timezone": "America\/Chicago",
      "_content": "Houston, Texas, United States",
      "woe_name": "Houston",
      "photo_count": "20"
    }, {
      "place_id": "5G.QlvtXU7wVkLQ",
      "woeid": "616702",
      "latitude": "47.376",
      "longitude": "-2.544",
      "place_url": "\/France\/Pays+de+la+Loire\/Piriac-sur-Mer",
      "place_type": "locality",
      "place_type_id": "7",
      "timezone": "Europe\/Paris",
      "_content": "Piriac-sur-Mer, Pays de la Loire, France",
      "woe_name": "Piriac-sur-Mer",
      "photo_count": "17"
    }, {
      "place_id": "W6pFIeBXULtSbm4",
      "woeid": "621044",
      "latitude": "44.886",
      "longitude": "1.219",
      "place_url": "\/France\/Aquitaine\/Sarlat-la-Can%C3%A9da",
      "place_type": "locality",
      "place_type_id": "7",
      "timezone": "Europe\/Paris",
      "_content": "Sarlat-La-Caneda, Aquitaine, France",
      "woe_name": "Sarlat-La-Caneda",
      "photo_count": "15"
    }, {
      "place_id": "N1Sqkp5TVLJAzw",
      "woeid": "26801",
      "latitude": "51.905",
      "longitude": "-3.779",
      "place_url": "\/United+Kingdom\/Wales\/Llanddeusant\/in-Carmarthenshire+County",
      "place_type": "locality",
      "place_type_id": "7",
      "timezone": "Europe\/London",
      "_content": "Llanddeusant, Wales, United Kingdom",
      "woe_name": "Llanddeusant",
      "photo_count": "15"
    }, {
      "place_id": "RtpMgPNXUbrqF08",
      "woeid": "630908",
      "latitude": "48.804",
      "longitude": "2.141",
      "place_url": "\/France\/Ile-de-France\/Versailles",
      "place_type": "locality",
      "place_type_id": "7",
      "timezone": "Europe\/Paris",
      "_content": "Versailles, Ile-de-France, France",
      "woe_name": "Versailles",
      "photo_count": "12"
    }, {
      "place_id": "zXuRD.VXU7zKIp4",
      "woeid": "616439",
      "latitude": "43.461",
      "longitude": "3.424",
      "place_url": "\/France\/Languedoc-Roussillon\/P%C3%A9zenas",
      "place_type": "locality",
      "place_type_id": "7",
      "timezone": "Europe\/Paris",
      "_content": "Pezenas, Languedoc-Roussillon, France",
      "woe_name": "Pezenas",
      "photo_count": "10"
    }, {
      "place_id": "HnQXw15XU7g6zTI",
      "woeid": "612230",
      "latitude": "46.976",
      "longitude": "-1.313",
      "place_url": "\/France\/Pays+de+la+Loire\/Montaigu",
      "place_type": "locality",
      "place_type_id": "7",
      "timezone": "Europe\/Paris",
      "_content": "Montaigu, Pays de la Loire, France",
      "woe_name": "Montaigu",
      "photo_count": "10"
    }, {
      "place_id": "l5J_oYtXULIcKZ0",
      "woeid": "628886",
      "latitude": "43.598",
      "longitude": "1.434",
      "place_url": "\/France\/Midi-Pyrenees\/Toulouse",
      "place_type": "locality",
      "place_type_id": "7",
      "timezone": "Europe\/Paris",
      "_content": "Toulouse, Midi-Pyrenees, France",
      "woe_name": "Toulouse",
      "photo_count": "10"
    }, {
      "place_id": "pJd7mt9UV7jeXIg",
      "woeid": "552015",
      "latitude": "56.154",
      "longitude": "10.194",
      "place_url": "\/Denmark\/Midtjylland\/Aarhus",
      "place_type": "locality",
      "place_type_id": "7",
      "timezone": "Europe\/Copenhagen",
      "_content": "Aarhus, Midtjylland, Denmark",
      "woe_name": "Aarhus",
      "photo_count": "10"
    }, {
      "place_id": "mZBfXwFXU7xs5N8",
      "woeid": "616985",
      "latitude": "48.529",
      "longitude": "-2.006",
      "place_url": "\/France\/Brittany\/Plou%C3%ABr-sur-Rance",
      "place_type": "locality",
      "place_type_id": "7",
      "timezone": "Europe\/Paris",
      "_content": "Plouer-Sur-Rance, Brittany, France",
      "woe_name": "Plouer-Sur-Rance",
      "photo_count": "9"
    }, {
      "place_id": "JE7TZtFUW7yGp.Q",
      "woeid": "596140",
      "latitude": "47.555",
      "longitude": "-2.879",
      "place_url": "\/France\/Brittany\/Kerners",
      "place_type": "locality",
      "place_type_id": "7",
      "timezone": "Europe\/Paris",
      "_content": "Kerners, Brittany, France",
      "woe_name": "Kerners",
      "photo_count": "9"
    }, {
      "place_id": "xYZd5LlXU7L9zEM",
      "woeid": "618303",
      "latitude": "48.212",
      "longitude": "4.500",
      "place_url": "\/France\/Champagne-Ardenne\/Puits-et-Nuisement",
      "place_type": "locality",
      "place_type_id": "7",
      "timezone": "Europe\/Paris",
      "_content": "Puits-et-Nuisement, Champagne-Ardenne, France",
      "woe_name": "Puits-et-Nuisement",
      "photo_count": "9"
    }, {
      "place_id": "6eMamcNXUbrfDzI",
      "woeid": "630456",
      "latitude": "47.289",
      "longitude": "0.731",
      "place_url": "\/France\/Centre+region\/Veign%C3%A9",
      "place_type": "locality",
      "place_type_id": "7",
      "timezone": "Europe\/Paris",
      "_content": "Veigne, Centre region, France",
      "woe_name": "Veigne",
      "photo_count": "8"
    }, {
      "place_id": "0zfXuENTVr_AbZgU",
      "woeid": "2450022",
      "latitude": "25.782",
      "longitude": "-80.221",
      "place_url": "\/United+States\/Florida\/Miami",
      "place_type": "locality",
      "place_type_id": "7",
      "timezone": "America\/New_York",
      "_content": "Miami, Florida, United States",
      "woe_name": "Miami",
      "photo_count": "7"
    }, {
      "place_id": "GqVgZU1TV7rEa__8",
      "woeid": "2508655",
      "latitude": "34.257",
      "longitude": "-88.707",
      "place_url": "\/United+States\/Mississippi\/Tupelo",
      "place_type": "locality",
      "place_type_id": "7",
      "timezone": "America\/Chicago",
      "_content": "Tupelo, Mississippi, United States",
      "woe_name": "Tupelo",
      "photo_count": "5"
    }, {
      "place_id": "TkbnbRpWV7h9VsI",
      "woeid": "752101",
      "latitude": "38.349",
      "longitude": "-0.500",
      "place_url": "\/Spain\/Valencia\/Alicante",
      "place_type": "locality",
      "place_type_id": "7",
      "timezone": "Europe\/Madrid",
      "_content": "Alicante, Valencia, Spain",
      "woe_name": "Alicante",
      "photo_count": "5"
    }, {
      "place_id": "kPpnXKtXULOzPR8",
      "woeid": "629484",
      "latitude": "48.296",
      "longitude": "4.078",
      "place_url": "\/France\/Champagne-Ardenne\/Troyes",
      "place_type": "locality",
      "place_type_id": "7",
      "timezone": "Europe\/Paris",
      "_content": "Troyes, Champagne-Ardenne, France",
      "woe_name": "Troyes",
      "photo_count": "5"
    }, {
      "place_id": "KSWTf9lXUL.fBxk",
      "woeid": "625259",
      "latitude": "45.011",
      "longitude": "1.086",
      "place_url": "\/France\/Aquitaine\/Saint-L%C3%A9on-sur-V%C3%A9z%C3%A8re",
      "place_type": "locality",
      "place_type_id": "7",
      "timezone": "Europe\/Paris",
      "_content": "St.-Leon-Sur-Vezere, Aquitaine, France",
      "woe_name": "St.-Leon-Sur-Vezere",
      "photo_count": "4"
    }, {
      "place_id": "zbYo9l5XUL1fUH8",
      "woeid": "627151",
      "latitude": "43.266",
      "longitude": "6.638",
      "place_url": "\/France\/Provence-Alpes-Cote+d%27Azur\/Saint-Tropez",
      "place_type": "locality",
      "place_type_id": "7",
      "timezone": "Europe\/Paris",
      "_content": "Saint-Tropez, Provence-Alpes-Cote d'Azur, France",
      "woe_name": "Saint-Tropez",
      "photo_count": "4"
    }, {
      "place_id": "UnlG4dJXU7PimHk",
      "woeid": "619944",
      "latitude": "43.499",
      "longitude": "3.025",
      "place_url": "\/France\/Languedoc-Roussillon\/Roquebrun",
      "place_type": "locality",
      "place_type_id": "7",
      "timezone": "Europe\/Paris",
      "_content": "Roquebrun, Languedoc-Roussillon, France",
      "woe_name": "Roquebrun",
      "photo_count": "4"
    }, {
      "place_id": "hFVWAGJTUb0b6_lq",
      "woeid": "2378053",
      "latitude": "41.435",
      "longitude": "-88.219",
      "place_url": "\/United+States\/Illinois\/Channahon",
      "place_type": "locality",
      "place_type_id": "7",
      "timezone": "America\/Chicago",
      "_content": "Channahon, Illinois, United States",
      "woe_name": "Channahon",
      "photo_count": "4"
    }, {
      "place_id": "IlGTAchXU7z2dqs",
      "woeid": "616935",
      "latitude": "43.950",
      "longitude": "0.731",
      "place_url": "\/France\/Midi-Pyrenees\/Plieux",
      "place_type": "locality",
      "place_type_id": "7",
      "timezone": "Europe\/Paris",
      "_content": "Plieux, Midi-Pyrenees, France",
      "woe_name": "Plieux",
      "photo_count": "4"
    }, {
      "place_id": "eS0R7XZQUL8MKGXUdQ",
      "woeid": "12514796",
      "latitude": "-20.427",
      "longitude": "57.676",
      "place_url": "\/Mauritius\/Grand+Port\/Plaisance+International+Airport",
      "place_type": "locality",
      "place_type_id": 7,
      "timezone": "Indian\/Mauritius",
      "_content": "Plaisance International Airport, Mauritius",
      "woe_name": "Plaisance International Airport",
      "photo_count": "3"
    }, {
      "place_id": "_6FHsXJXU709YPQ",
      "woeid": "617728",
      "latitude": "44.472",
      "longitude": "3.917",
      "place_url": "\/France\/Languedoc-Roussillon\/Pourcharesses",
      "place_type": "locality",
      "place_type_id": "7",
      "timezone": "Europe\/Paris",
      "_content": "Pourcharesses, Languedoc-Roussillon, France",
      "woe_name": "Pourcharesses",
      "photo_count": "3"
    }, {
      "place_id": "e_yNaQtXULIY.p4",
      "woeid": "628879",
      "latitude": "43.130",
      "longitude": "5.931",
      "place_url": "\/France\/Provence-Alpes-Cote+d%27Azur\/Toulon",
      "place_type": "locality",
      "place_type_id": "7",
      "timezone": "Europe\/Paris",
      "_content": "Toulon, Provence-Alpes-Cote d'Azur, France",
      "woe_name": "Toulon",
      "photo_count": "3"
    }, {
      "place_id": "sxpZi5FQU7r8MQ",
      "woeid": "11073",
      "latitude": "50.677",
      "longitude": "-1.244",
      "place_url": "\/United+Kingdom\/England\/Arreton",
      "place_type": "locality",
      "place_type_id": "7",
      "timezone": "Europe\/London",
      "_content": "Arreton, England, United Kingdom",
      "woe_name": "Arreton",
      "photo_count": "3"
    }, {
      "place_id": "mUQ9voVXUbsbWBA",
      "woeid": "631641",
      "latitude": "48.514",
      "longitude": "2.123",
      "place_url": "\/France\/Ile-de-France\/Villeconin",
      "place_type": "locality",
      "place_type_id": "7",
      "timezone": "Europe\/Paris",
      "_content": "Villeconin, Ile-de-France, France",
      "woe_name": "Villeconin",
      "photo_count": "3"
    }, {
      "place_id": "AIjG675XULpy8Fk",
      "woeid": "620238",
      "latitude": "43.902",
      "longitude": "5.292",
      "place_url": "\/France\/Provence-Alpes-Cote+d%27Azur\/Roussillon\/in-Vaucluse",
      "place_type": "locality",
      "place_type_id": "7",
      "timezone": "Europe\/Paris",
      "_content": "Roussillon, Provence-Alpes-Cote d'Azur, France",
      "woe_name": "Roussillon",
      "photo_count": "3"
    }, {
      "place_id": "wYsz0JBWULt0WBI",
      "woeid": "721113",
      "latitude": "42.812",
      "longitude": "10.311",
      "place_url": "\/Italy\/Tuscany\/Portoferraio",
      "place_type": "locality",
      "place_type_id": "7",
      "timezone": "Europe\/Rome",
      "_content": "Portoferraio, Tuscany, Italy",
      "woe_name": "Portoferraio",
      "photo_count": "3"
    }, {
      "place_id": "1.HCW6pUVLLWtGe1gw",
      "woeid": "56855187",
      "latitude": "52.514",
      "longitude": "-3.653",
      "place_url": "\/United+Kingdom\/Wales\/Llwyn-Y-Gog",
      "place_type": "locality",
      "place_type_id": "7",
      "timezone": "Europe\/London",
      "_content": "Llwyn-Y-Gog, Wales, United Kingdom",
      "woe_name": "Llwyn-Y-Gog",
      "photo_count": "3"
    }, {
      "place_id": "ga5l_GlXUbpDChI",
      "woeid": "630533",
      "latitude": "50.262",
      "longitude": "3.509",
      "place_url": "\/France\/Nord-Pas-de-Calais\/Vendegies-sur-%C3%89caillon",
      "place_type": "locality",
      "place_type_id": "7",
      "timezone": "Europe\/Paris",
      "_content": "Vendegies-Sur-Ecaillon, Nord-Pas-de-Calais, France",
      "woe_name": "Vendegies-Sur-Ecaillon",
      "photo_count": "3"
    }, {
      "place_id": "Y1NefFRSULmn",
      "woeid": "3237",
      "latitude": "45.348",
      "longitude": "-80.031",
      "place_url": "\/Canada\/Ontario\/Parry+Sound",
      "place_type": "locality",
      "place_type_id": "7",
      "timezone": "America\/Toronto",
      "_content": "Parry Sound, Ontario, Canada",
      "woe_name": "Parry Sound",
      "photo_count": "3"
    }, {
      "place_id": "1GLgj9FXUbjlqUc",
      "woeid": "632097",
      "latitude": "49.399",
      "longitude": "0.130",
      "place_url": "\/France\/Lower+Normandy\/Villerville",
      "place_type": "locality",
      "place_type_id": "7",
      "timezone": "Europe\/Paris",
      "_content": "Villerville, Lower Normandy, France",
      "woe_name": "Villerville",
      "photo_count": "2"
    }, {
      "place_id": "E1JeWNNXULITnNo",
      "woeid": "628550",
      "latitude": "45.023",
      "longitude": "1.118",
      "place_url": "\/France\/Aquitaine\/Thonac",
      "place_type": "locality",
      "place_type_id": "7",
      "timezone": "Europe\/Paris",
      "_content": "Thonac, Aquitaine, France",
      "woe_name": "Thonac",
      "photo_count": "2"
    }, {
      "place_id": "fVrZIgJXUL_H6Is",
      "woeid": "625032",
      "latitude": "45.800",
      "longitude": "-1.038",
      "place_url": "\/France\/Poitou-Charentes\/Saint-Just-Luzac",
      "place_type": "locality",
      "place_type_id": "7",
      "timezone": "Europe\/Paris",
      "_content": "Saint-Just-Luzac, Poitou-Charentes, France",
      "woe_name": "Saint-Just-Luzac",
      "photo_count": "2"
    }, {
      "place_id": "kc70JH5XUbrKO4A",
      "woeid": "630549",
      "latitude": "48.237",
      "longitude": "4.468",
      "place_url": "\/France\/Champagne-Ardenne\/Vendeuvre-sur-Barse",
      "place_type": "locality",
      "place_type_id": "7",
      "timezone": "Europe\/Paris",
      "_content": "Vendeuvre-sur-Barse, Champagne-Ardenne, France",
      "woe_name": "Vendeuvre-sur-Barse",
      "photo_count": "2"
    }, {
      "place_id": "x_DDdqpXULwFRK8",
      "woeid": "626678",
      "latitude": "43.424",
      "longitude": "6.768",
      "place_url": "\/France\/Provence-Alpes-Cote+d%27Azur\/Saint-Rapha%C3%ABl",
      "place_type": "locality",
      "place_type_id": "7",
      "timezone": "Europe\/Paris",
      "_content": "Saint-Rapha\u00ebl, Provence-Alpes-Cote d'Azur, France",
      "woe_name": "St.-Raphael",
      "photo_count": "2"
    }, {
      "place_id": "NTBVRhhXUL020oA",
      "woeid": "627621",
      "latitude": "44.183",
      "longitude": "5.183",
      "place_url": "\/France\/Provence-Alpes-Cote+d%27Azur\/Sainte-Marguerite",
      "place_type": "locality",
      "place_type_id": "7",
      "timezone": "Europe\/Paris",
      "_content": "Sainte-Marguerite, Provence-Alpes-Cote d'Azur, France",
      "woe_name": "Sainte-Marguerite",
      "photo_count": "2"
    }, {
      "place_id": "Qd_XTiZQUrnljg",
      "woeid": "10336",
      "latitude": "57.775",
      "longitude": "-5.035",
      "place_url": "\/United+Kingdom\/Scotland\/Auchindrean",
      "place_type": "locality",
      "place_type_id": "7",
      "timezone": "Europe\/London",
      "_content": "Auchindrean, Scotland, United Kingdom",
      "woe_name": "Auchindrean",
      "photo_count": "2"
    }, {
      "place_id": "nOBoV7RXUL2pHTI",
      "woeid": "627580",
      "latitude": "45.481",
      "longitude": "6.063",
      "place_url": "\/France\/Rhone-Alpes\/Sainte-H%C3%A9l%C3%A8ne-du-Lac",
      "place_type": "locality",
      "place_type_id": "7",
      "timezone": "Europe\/Paris",
      "_content": "Ste.-Helene-Du-Lac, Rhone-Alpes, France",
      "woe_name": "Ste.-Helene-Du-Lac",
      "photo_count": "1"
    }, {
      "place_id": "WciMYchXULz1wus",
      "woeid": "626748",
      "latitude": "48.349",
      "longitude": "-3.995",
      "place_url": "\/France\/Brittany\/Saint-Rivoal",
      "place_type": "locality",
      "place_type_id": "7",
      "timezone": "Europe\/Paris",
      "_content": "Saint-Rivoal, Brittany, France",
      "woe_name": "Saint-Rivoal",
      "photo_count": "1"
    }, {
      "place_id": ".iecQEtXUL2VZGE",
      "woeid": "627780",
      "latitude": "43.453",
      "longitude": "4.428",
      "place_url": "\/France\/Provence-Alpes-Cote+d%27Azur\/Saintes-Maries-de-la-Mer",
      "place_type": "locality",
      "place_type_id": "7",
      "timezone": "Europe\/Paris",
      "_content": "Saintes-Maries-de-la-Mer, Provence-Alpes-Cote d'Azur, France",
      "woe_name": "Saintes-Maries-de-la-Mer",
      "photo_count": "1"
    }, {
      "place_id": "TXIrJzRXUbqGW.o",
      "woeid": "630452",
      "latitude": "45.070",
      "longitude": "3.283",
      "place_url": "\/France\/Auvergne\/V%C3%A9drines-St.-Loup",
      "place_type": "locality",
      "place_type_id": "7",
      "timezone": "Europe\/Paris",
      "_content": "Vedrines-St.-Loup, Auvergne, France",
      "woe_name": "Vedrines-St.-Loup",
      "photo_count": "1"
    }, {
      "place_id": "mktDa8xXULwucLk",
      "woeid": "626522",
      "latitude": "47.521",
      "longitude": "-3.137",
      "place_url": "\/France\/Brittany\/Saint-Pierre-Quiberon",
      "place_type": "locality",
      "place_type_id": "7",
      "timezone": "Europe\/Paris",
      "_content": "Saint-Pierre-Quiberon, Brittany, France",
      "woe_name": "Saint-Pierre-Quiberon",
      "photo_count": "1"
    }, {
      "place_id": "51q3rr5XUbscBcM",
      "woeid": "631024",
      "latitude": "45.880",
      "longitude": "6.179",
      "place_url": "\/France\/Rhone-Alpes\/Veyrier-du-Lac",
      "place_type": "locality",
      "place_type_id": "7",
      "timezone": "Europe\/Paris",
      "_content": "Veyrier-du-Lac, Rhone-Alpes, France",
      "woe_name": "Veyrier-du-Lac",
      "photo_count": "1"
    }, {
      "place_id": "QX1vYqpXUbuey4A",
      "woeid": "631085",
      "latitude": "44.196",
      "longitude": "0.318",
      "place_url": "\/France\/Aquitaine\/Vianne",
      "place_type": "locality",
      "place_type_id": "7",
      "timezone": "Europe\/Paris",
      "_content": "Vianne, Aquitaine, France",
      "woe_name": "Vianne",
      "photo_count": "1"
    }, {
      "place_id": "bMd8HnxXUbu_ucY",
      "woeid": "631681",
      "latitude": "42.586",
      "longitude": "2.369",
      "place_url": "\/France\/Languedoc-Roussillon\/Villefranche-de-Conflent",
      "place_type": "locality",
      "place_type_id": "7",
      "timezone": "Europe\/Paris",
      "_content": "Villefranche-de-Conflent, Languedoc-Roussillon, France",
      "woe_name": "Villefranche-de-Conflent",
      "photo_count": "1"
    }, {
      "place_id": "sT5HOJpXUbpcTwo",
      "woeid": "630012",
      "latitude": "47.219",
      "longitude": "4.613",
      "place_url": "\/France\/Burgundy\/Vandenesse-en-Auxois",
      "place_type": "locality",
      "place_type_id": "7",
      "timezone": "Europe\/Paris",
      "_content": "Vandenesse-en-Auxois, Burgundy, France",
      "woe_name": "Vandenesse-en-Auxois",
      "photo_count": "1"
    }, {
      "place_id": "hvcnIjBXULM0SlY",
      "woeid": "629850",
      "latitude": "43.837",
      "longitude": "5.983",
      "place_url": "\/France\/Provence-Alpes-Cote+d%27Azur\/Valensole",
      "place_type": "locality",
      "place_type_id": "7",
      "timezone": "Europe\/Paris",
      "_content": "Valensole, Provence-Alpes-Cote d'Azur, France",
      "woe_name": "Valensole",
      "photo_count": "1"
    }, {
      "place_id": "WsB8LM1XUL0HA6M",
      "woeid": "627998",
      "latitude": "45.842",
      "longitude": "6.213",
      "place_url": "\/France\/Rhone-Alpes\/Talloires",
      "place_type": "locality",
      "place_type_id": "7",
      "timezone": "Europe\/Paris",
      "_content": "Talloires, Rhone-Alpes, France",
      "woe_name": "Talloires",
      "photo_count": "1"
    }, {
      "place_id": "wspPgNtXULIMRTo",
      "woeid": "628971",
      "latitude": "47.396",
      "longitude": "0.693",
      "place_url": "\/France\/Centre+region\/Tours",
      "place_type": "locality",
      "place_type_id": "7",
      "timezone": "Europe\/Paris",
      "_content": "Tours, Centre region, France",
      "woe_name": "Tours",
      "photo_count": "1"
    }, {
      "place_id": "DnGs7LFXULONbPE",
      "woeid": "629181",
      "latitude": "48.784",
      "longitude": "-3.232",
      "place_url": "\/France\/Brittany\/Tr%C3%A9guier\/in-Cotes-d%27Armor",
      "place_type": "locality",
      "place_type_id": "7",
      "timezone": "Europe\/Paris",
      "_content": "Treguier, Brittany, France",
      "woe_name": "Treguier",
      "photo_count": "1"
    }, {
      "place_id": "3m9_m1JXULNeRDk",
      "woeid": "629564",
      "latitude": "46.813",
      "longitude": "4.251",
      "place_url": "\/France\/Burgundy\/Uchon",
      "place_type": "locality",
      "place_type_id": "7",
      "timezone": "Europe\/Paris",
      "_content": "Uchon, Burgundy, France",
      "woe_name": "Uchon",
      "photo_count": "1"
    }, {
      "place_id": "V.8As4hXUL3yQA4",
      "woeid": "627956",
      "latitude": "45.070",
      "longitude": "4.837",
      "place_url": "\/France\/Rhone-Alpes\/Tain-l%27Hermitage",
      "place_type": "locality",
      "place_type_id": "7",
      "timezone": "Europe\/Paris",
      "_content": "Tain-l'Hermitage, Rhone-Alpes, France",
      "woe_name": "Tain-l'Hermitage",
      "photo_count": "1"
    }, {
      "place_id": "jSZzeJNXUL7Qfz0",
      "woeid": "624381",
      "latitude": "48.878",
      "longitude": "2.846",
      "place_url": "\/France\/Ile-de-France\/Saint-Germain-sur-Morin",
      "place_type": "locality",
      "place_type_id": "7",
      "timezone": "Europe\/Paris",
      "_content": "Saint-Germain-sur-Morin, Ile-de-France, France",
      "woe_name": "Saint-Germain-sur-Morin",
      "photo_count": "1"
    }, {
      "place_id": "5VetPRZXU7MNKcg",
      "woeid": "619163",
      "latitude": "48.109",
      "longitude": "-1.673",
      "place_url": "\/France\/Brittany\/Rennes",
      "place_type": "locality",
      "place_type_id": "7",
      "timezone": "Europe\/Paris",
      "_content": "Rennes, Brittany, France",
      "woe_name": "Rennes",
      "photo_count": "1"
    }, {
      "place_id": "U6d94VJXU7LpHN4",
      "woeid": "618973",
      "latitude": "50.573",
      "longitude": "2.176",
      "place_url": "\/France\/Nord-Pas-de-Calais\/Reclinghem",
      "place_type": "locality",
      "place_type_id": "7",
      "timezone": "Europe\/Paris",
      "_content": "Reclinghem, Nord-Pas-de-Calais, France",
      "woe_name": "Reclinghem",
      "photo_count": "1"
    }, {
      "place_id": "HSmRJAlXU7MsJ_I",
      "woeid": "619666",
      "latitude": "47.699",
      "longitude": "-2.338",
      "place_url": "\/France\/Brittany\/Rochefort-en-Terre",
      "place_type": "locality",
      "place_type_id": "7",
      "timezone": "Europe\/Paris",
      "_content": "Rochefort-en-Terre, Brittany, France",
      "woe_name": "Rochefort-en-Terre",
      "photo_count": "1"
    }, {
      "place_id": "1G_E_bpQVbiozg",
      "woeid": "17220",
      "latitude": "55.472",
      "longitude": "-1.593",
      "place_url": "\/United+Kingdom\/England\/Craster",
      "place_type": "locality",
      "place_type_id": "7",
      "timezone": "Europe\/London",
      "_content": "Craster, England, United Kingdom",
      "woe_name": "Craster",
      "photo_count": "1"
    }, {
      "place_id": "yG4WXalXULtop7o",
      "woeid": "621631",
      "latitude": "42.864",
      "longitude": "1.201",
      "place_url": "\/France\/Midi-Pyrenees\/Seix",
      "place_type": "locality",
      "place_type_id": "7",
      "timezone": "Europe\/Paris",
      "_content": "Seix, Midi-Pyrenees, France",
      "woe_name": "Seix",
      "photo_count": "1"
    }, {
      "place_id": "0MNMtNxXULrZGQU",
      "woeid": "620334",
      "latitude": "49.697",
      "longitude": "2.782",
      "place_url": "\/France\/Picardy\/Roye\/in-Somme",
      "place_type": "locality",
      "place_type_id": "7",
      "timezone": "Europe\/Paris",
      "_content": "Roye, Picardy, France",
      "woe_name": "Roye",
      "photo_count": "1"
    }, {
      "place_id": "VX3lnEJXU7IwrWc",
      "woeid": "618780",
      "latitude": "43.543",
      "longitude": "1.473",
      "place_url": "\/France\/Midi-Pyrenees\/Ramonville-St.-Agne",
      "place_type": "locality",
      "place_type_id": "7",
      "timezone": "Europe\/Paris",
      "_content": "Ramonville-Saint-Agne, Midi-Pyrenees, France",
      "woe_name": "Ramonville-Saint-Agne",
      "photo_count": "1"
    }, {
      "place_id": "dUiZUGJXU708ZKM",
      "woeid": "617973",
      "latitude": "44.589",
      "longitude": "-0.299",
      "place_url": "\/France\/Aquitaine\/Preignac",
      "place_type": "locality",
      "place_type_id": "7",
      "timezone": "Europe\/Paris",
      "_content": "Preignac, Aquitaine, France",
      "woe_name": "Preignac",
      "photo_count": "1"
    }, {
      "place_id": "9Usis2FXU79nPko",
      "woeid": "615023",
      "latitude": "45.932",
      "longitude": "1.031",
      "place_url": "\/France\/Limousin\/Oradour-sur-Glane",
      "place_type": "locality",
      "place_type_id": "7",
      "timezone": "Europe\/Paris",
      "_content": "Oradour-sur-Glane, Limousin, France",
      "woe_name": "Oradour-sur-Glane",
      "photo_count": "1"
    }, {
      "place_id": "w4Gg8TRWULuSsqk",
      "woeid": "721629",
      "latitude": "42.092",
      "longitude": "12.522",
      "place_url": "\/Italy\/Lazio\/Riano",
      "place_type": "locality",
      "place_type_id": "7",
      "timezone": "Europe\/Rome",
      "_content": "Riano, Lazio, Italy",
      "woe_name": "Riano",
      "photo_count": "1"
    }, {
      "place_id": "ojcYOllXU79MIlI",
      "woeid": "615103",
      "latitude": "43.791",
      "longitude": "5.041",
      "place_url": "\/France\/Provence-Alpes-Cote+d%27Azur\/Orgon",
      "place_type": "locality",
      "place_type_id": "7",
      "timezone": "Europe\/Paris",
      "_content": "Orgon, Provence-Alpes-Cote d'Azur, France",
      "woe_name": "Orgon",
      "photo_count": "1"
    }, {
      "place_id": "nCXmhPdXU7wNpB0",
      "woeid": "616442",
      "latitude": "42.738",
      "longitude": "2.482",
      "place_url": "\/France\/Languedoc-Roussillon\/P%C3%A9zilla-de-Conflent",
      "place_type": "locality",
      "place_type_id": "7",
      "timezone": "Europe\/Paris",
      "_content": "Pezilla-De-Conflent, Languedoc-Roussillon, France",
      "woe_name": "Pezilla-De-Conflent",
      "photo_count": "1"
    }, {
      "place_id": "E9fK4NhTV7rq81B0",
      "woeid": "2504498",
      "latitude": "40.890",
      "longitude": "-74.010",
      "place_url": "\/United+States\/New+Jersey\/Teaneck",
      "place_type": "locality",
      "place_type_id": "7",
      "timezone": "America\/New_York",
      "_content": "Teaneck, New Jersey, United States",
      "woe_name": "Teaneck",
      "photo_count": "1"
    }, {
      "place_id": "EAJPv7JXULgcI24",
      "woeid": "622854",
      "latitude": "46.726",
      "longitude": "2.505",
      "place_url": "\/France\/Centre+region\/Saint-Amand-Montrond",
      "place_type": "locality",
      "place_type_id": "7",
      "timezone": "Europe\/Paris",
      "_content": "Saint-Amand-Montrond, Centre region, France",
      "woe_name": "Saint-Amand-Montrond",
      "photo_count": "1"
    }, {
      "place_id": "cKUoDgtXULlBJag",
      "woeid": "623145",
      "latitude": "47.357",
      "longitude": "0.731",
      "place_url": "\/France\/Centre+region\/Saint-Avertin",
      "place_type": "locality",
      "place_type_id": "7",
      "timezone": "Europe\/Paris",
      "_content": "Saint-Avertin, Centre region, France",
      "woe_name": "Saint-Avertin",
      "photo_count": "1"
    }, {
      "place_id": "vLgaK2dXUL9meFw",
      "woeid": "625361",
      "latitude": "48.633",
      "longitude": "-2.111",
      "place_url": "\/France\/Brittany\/Saint-Lunaire",
      "place_type": "locality",
      "place_type_id": "7",
      "timezone": "Europe\/Paris",
      "_content": "Saint-Lunaire, Brittany, France",
      "woe_name": "Saint-Lunaire",
      "photo_count": "1"
    }, {
      "place_id": "SdTpMV9XUL555Dk",
      "woeid": "624517",
      "latitude": "48.203",
      "longitude": "-4.530",
      "place_url": "\/France\/Brittany\/Saint-Hernot",
      "place_type": "locality",
      "place_type_id": "7",
      "timezone": "Europe\/Paris",
      "_content": "Saint-Hernot, Brittany, France",
      "woe_name": "Saint-Hernot",
      "photo_count": "1"
    }, {
      "place_id": "etJASYhXUL.sLu8",
      "woeid": "625391",
      "latitude": "48.650",
      "longitude": "-2.023",
      "place_url": "\/France\/Brittany\/Saint-Malo\/in-Ille-et-Vilaine",
      "place_type": "locality",
      "place_type_id": "7",
      "timezone": "Europe\/Paris",
      "_content": "Saint-Malo, Brittany, France",
      "woe_name": "Saint-Malo",
      "photo_count": "1"
    }, {
      "place_id": "YGD.Fw5XUL.h60Y",
      "woeid": "625636",
      "latitude": "43.789",
      "longitude": "3.730",
      "place_url": "\/France\/Languedoc-Roussillon\/Saint-Martin-de-Londres",
      "place_type": "locality",
      "place_type_id": "7",
      "timezone": "Europe\/Paris",
      "_content": "Saint-Martin-de-Londres, Languedoc-Roussillon, France",
      "woe_name": "Saint-Martin-de-Londres",
      "photo_count": "1"
    }, {
      "place_id": "IM0JdMNXUL_NU_Y",
      "woeid": "625795",
      "latitude": "44.400",
      "longitude": "1.120",
      "place_url": "\/France\/Midi-Pyrenees\/Saint-Matr%C3%A9",
      "place_type": "locality",
      "place_type_id": "7",
      "timezone": "Europe\/Paris",
      "_content": "St.-Matre, Midi-Pyrenees, France",
      "woe_name": "St.-Matre",
      "photo_count": "1"
    }, {
      "place_id": "TtNOR4NXUL9WhKY",
      "woeid": "625642",
      "latitude": "46.201",
      "longitude": "-1.360",
      "place_url": "\/France\/Poitou-Charentes\/Saint-Martin-de-R%C3%A9",
      "place_type": "locality",
      "place_type_id": "7",
      "timezone": "Europe\/Paris",
      "_content": "St.-Martin-De-Re, Poitou-Charentes, France",
      "woe_name": "St.-Martin-De-Re",
      "photo_count": "1"
    }, {
      "place_id": "bxXciB1XUL7okhU",
      "woeid": "624427",
      "latitude": "47.503",
      "longitude": "-2.835",
      "place_url": "\/France\/Brittany\/Saint-Gildas-de-Rhuys",
      "place_type": "locality",
      "place_type_id": "7",
      "timezone": "Europe\/Paris",
      "_content": "Saint-Gildas-de-Rhuys, Brittany, France",
      "woe_name": "Saint-Gildas-de-Rhuys",
      "photo_count": "1"
    }, {
      "place_id": "sybsEX9XUL4AmcI",
      "woeid": "624049",
      "latitude": "45.953",
      "longitude": "-0.009",
      "place_url": "\/France\/Poitou-Charentes\/Saint-Fraigne",
      "place_type": "locality",
      "place_type_id": "7",
      "timezone": "Europe\/Paris",
      "_content": "Saint-Fraigne, Poitou-Charentes, France",
      "woe_name": "Saint-Fraigne",
      "photo_count": "1"
    }, {
      "place_id": "CsawZCJXULlIPGU",
      "woeid": "623444",
      "latitude": "43.422",
      "longitude": "2.946",
      "place_url": "\/France\/Languedoc-Roussillon\/Saint-Chinian",
      "place_type": "locality",
      "place_type_id": "7",
      "timezone": "Europe\/Paris",
      "_content": "Saint-Chinian, Languedoc-Roussillon, France",
      "woe_name": "Saint-Chinian",
      "photo_count": "1"
    }, {
      "place_id": "HJRiMo5XULmnr9w",
      "woeid": "623342",
      "latitude": "48.622",
      "longitude": "-2.131",
      "place_url": "\/France\/Brittany\/Saint-Briac-sur-Mer",
      "place_type": "locality",
      "place_type_id": "7",
      "timezone": "Europe\/Paris",
      "_content": "Saint-Briac-sur-Mer, Brittany, France",
      "woe_name": "Saint-Briac-sur-Mer",
      "photo_count": "1"
    }, {
      "place_id": "E9rKgFNXULmDmMQ",
      "woeid": "623465",
      "latitude": "45.450",
      "longitude": "5.775",
      "place_url": "\/France\/Rhone-Alpes\/Saint-christophe-la-grotte",
      "place_type": "locality",
      "place_type_id": "7",
      "timezone": "Europe\/Paris",
      "_content": "Saint-Christophe, Rhone-Alpes, France",
      "woe_name": "Saint-Christophe",
      "photo_count": "1"
    }, {
      "place_id": "_0SyG8JXULmm7xc",
      "woeid": "623809",
      "latitude": "47.654",
      "longitude": "1.491",
      "place_url": "\/France\/Centre+region\/Saint-Dy%C3%A9-sur-Loire",
      "place_type": "locality",
      "place_type_id": "7",
      "timezone": "Europe\/Paris",
      "_content": "St.-Dye-Sur-Loire, Centre region, France",
      "woe_name": "St.-Dye-Sur-Loire",
      "photo_count": "1"
    }, {
      "place_id": "oV1xZ2JXUL5yZ7k",
      "woeid": "624008",
      "latitude": "48.282",
      "longitude": "-4.532",
      "place_url": "\/France\/Brittany\/Saint-Fiacre\/in-Finistere",
      "place_type": "locality",
      "place_type_id": "7",
      "timezone": "Europe\/Paris",
      "_content": "Saint-Fiacre, Brittany, France",
      "woe_name": "Saint-Fiacre",
      "photo_count": "1"
    }, {
      "place_id": "38LuyHBXULxGUDA",
      "woeid": "626319",
      "latitude": "43.269",
      "longitude": "0.697",
      "place_url": "\/France\/Midi-Pyrenees\/Saint-P%C3%A9-Delbosc",
      "place_type": "locality",
      "place_type_id": "7",
      "timezone": "Europe\/Paris",
      "_content": "St.-Pe-Delbosc, Midi-Pyrenees, France",
      "woe_name": "St.-Pe-Delbosc",
      "photo_count": "1"
    }],
    "date_start": 1498089600,
    "date_stop": 1498175999
  },
  "stat": "ok"
}
